[
  {
    "latitude": 24.968371,
    "longitude": 121.438034,
    "所有人": "加新企業社",
    "地址": "新北市土城區中華路1段10之1號",
    "廠牌": "永發",
    "型號": "LT-100",
    "器號": "GO-00021",
    "Max (t)": 50,
    "e (kg)": 2,
    "檢定日期": 1120617,
    "檢定合格單號": "A0BC1200250",
    "案號": "10BC1207000228"
  },
  {
    "latitude": 24.9696565,
    "longitude": 121.4478455,
    "所有人": "協億行",
    "地址": "新北市土城區和平路38號",
    "廠牌": "生泰",
    "型號": "DK-3230-X6",
    "器號": 69666,
    "Max (t)": 30,
    "e (kg)": 1,
    "檢定日期": 1120615,
    "檢定合格單號": "A0BC1200228",
    "案號": "10BC1207000203"
  },
  {
    "latitude": 25.21235,
    "longitude": 121.61194,
    "所有人": "新北市金山地區農會",
    "地址": "新北市金山區南勢湖路118號",
    "廠牌": "吉信",
    "型號": "EX-2001",
    "器號": "F16300028",
    "Max (t)": 50,
    "e (kg)": 2,
    "檢定日期": 1120630,
    "檢定合格單號": "B0BC1200237",
    "案號": "10BC1220000166"
  },
  {
    "latitude": 25.0182463,
    "longitude": 121.4709525,
    "所有人": "車容坊股份有限公司民生營業所",
    "地址": "新北市板橋區縣民大道二段288號",
    "廠牌": "中日",
    "型號": "P5-S+",
    "器號": "P5M230345",
    "Max (t)": 50,
    "e (kg)": 2,
    "檢定日期": 1120629,
    "檢定合格單號": "B0BC1200239",
    "案號": "10BC1220000163"
  },
  {
    "latitude": 25.0613549,
    "longitude": 121.4693269,
    "所有人": "三鈴汽車股份有限公司",
    "地址": "新北市三重區新北大道2段67號",
    "廠牌": "中日",
    "型號": "P5-S+",
    "器號": "P5M230348",
    "Max (t)": 10,
    "e (kg)": 1,
    "檢定日期": 1120612,
    "檢定合格單號": "A0BC1200236",
    "案號": "10BC1207000182"
  },
  {
    "latitude": 25.0613549,
    "longitude": 121.4693269,
    "所有人": "三鈴汽車股份有限公司",
    "地址": "新北市三重區新北大道2段67號",
    "廠牌": "中日",
    "型號": "P5-S+",
    "器號": "P5M230347",
    "Max (t)": 20,
    "e (kg)": 1,
    "檢定日期": 1120612,
    "檢定合格單號": "A0BC1200235",
    "案號": "10BC1207000182"
  },
  {
    "latitude": 25.0763738,
    "longitude": 121.4075235,
    "所有人": "成台股份有限公司",
    "地址": "新北市林口區工9路33號",
    "廠牌": "權達",
    "型號": "GW-1600",
    "器號": "T2112193",
    "Max (t)": 10,
    "e (kg)": 1,
    "檢定日期": 1120628,
    "檢定合格單號": "A0BC1200258",
    "案號": "10BC1207000171"
  },
  {
    "latitude": 25.0750366,
    "longitude": 121.4438302,
    "所有人": "大豐環保科技股份有限公司",
    "地址": "新北市五股區夏綠地街31號",
    "廠牌": "力固",
    "型號": "IND570",
    "器號": "C151215413",
    "Max (t)": 3,
    "e (kg)": 1,
    "檢定日期": 1120525,
    "檢定合格單號": "A0BC1200213",
    "案號": "10BC1207000170"
  },
  {
    "latitude": 25.0750366,
    "longitude": 121.4438302,
    "所有人": "大豐環保科技股份有限公司",
    "地址": "新北市五股區夏綠地街31號",
    "廠牌": "力固",
    "型號": "IND570",
    "器號": "C151214949",
    "Max (t)": 10,
    "e (kg)": 1,
    "檢定日期": 1120525,
    "檢定合格單號": "A0BC1200212",
    "案號": "10BC1207000170"
  },
  {
    "latitude": 25.0442798,
    "longitude": 121.4649099,
    "所有人": "凱銳汽車股份有限公司新莊分公司",
    "地址": "新北市新莊區化成路37號",
    "廠牌": "中日",
    "型號": "P5-S?",
    "器號": "P5M200251",
    "Max (t)": 50,
    "e (kg)": 2,
    "檢定日期": 1120628,
    "檢定合格單號": "A0BC1200256",
    "案號": "10BC1207000169"
  }
]