[
  {
    "latitude": 24.968371,
    "longitude": 121.438034,
    "縣市": "新北市",
    "所有人": "加新企業社",
    "地址": "新北市土城區中華路1段10之1號",
    "廠牌": "永發",
    "型號": "LT-100",
    "器號": "GO-00021",
    "Max_t": 50,
    "e_kg": 2,
    "檢定合格期限": 1140630,
    "檢定合格單號": "A0BC1200250"
  },
  {
    "latitude": 24.9696565,
    "longitude": 121.4478455,
    "縣市": "新北市",
    "所有人": "協億行",
    "地址": "新北市土城區和平路38號",
    "廠牌": "生泰",
    "型號": "DK-3230-X6",
    "器號": 69666,
    "Max_t": 30,
    "e_kg": 1,
    "檢定合格期限": 1140630,
    "檢定合格單號": "A0BC1200228"
  },
  {
    "latitude": 25.21235,
    "longitude": 121.61194,
    "縣市": "新北市",
    "所有人": "新北市金山地區農會",
    "地址": "新北市金山區南勢湖路118號",
    "廠牌": "吉信",
    "型號": "EX-2001",
    "器號": "F16300028",
    "Max_t": 50,
    "e_kg": 2,
    "檢定合格期限": 1140630,
    "檢定合格單號": "B0BC1200237"
  },
  {
    "latitude": 25.0182463,
    "longitude": 121.4709525,
    "縣市": "新北市",
    "所有人": "車容坊股份有限公司民生營業所",
    "地址": "新北市板橋區縣民大道二段288號",
    "廠牌": "中日",
    "型號": "P5-S+",
    "器號": "P5M230345",
    "Max_t": 50,
    "e_kg": 2,
    "檢定合格期限": 1140630,
    "檢定合格單號": "B0BC1200239"
  },
  {
    "latitude": 25.06135,
    "longitude": 121.46932,
    "縣市": "新北市",
    "所有人": "三鈴汽車股份有限公司",
    "地址": "新北市三重區新北大道2段67號",
    "廠牌": "中日",
    "型號": "P5-S+",
    "器號": "P5M230348",
    "Max_t": 10,
    "e_kg": 1,
    "檢定合格期限": 1140630,
    "檢定合格單號": "A0BC1200236",
    "檢查日期": 1130812,
    "檢查合格_停用_單號": "A01200254",
    "檢查合格與否": "Y"
  },
  {
    "latitude": 25.061354,
    "longitude": 121.469326,
    "縣市": "新北市",
    "所有人": "三鈴汽車股份有限公司",
    "地址": "新北市三重區新北大道2段67號",
    "廠牌": "中日",
    "型號": "P5-S+",
    "器號": "P5M230347",
    "Max_t": 20,
    "e_kg": 1,
    "檢定合格期限": 1140630,
    "檢定合格單號": "A0BC1200235",
    "檢查日期": 1130812,
    "檢查合格_停用_單號": "A00005331",
    "檢查合格與否": "N"
  },
  {
    "latitude": 25.0763738,
    "longitude": 121.4075235,
    "縣市": "新北市",
    "所有人": "成台股份有限公司",
    "地址": "新北市林口區工9路33號",
    "廠牌": "權達",
    "型號": "GW-1600",
    "器號": "T2112193",
    "Max_t": 10,
    "e_kg": 1,
    "檢定合格期限": 1140630,
    "檢定合格單號": "A0BC1200258"
  },
  {
    "latitude": 25.0750366,
    "longitude": 121.4438302,
    "縣市": "新北市",
    "所有人": "大豐環保科技股份有限公司",
    "地址": "新北市五股區夏綠地街31號",
    "廠牌": "力固",
    "型號": "IND570",
    "器號": "C151215413",
    "Max_t": 3,
    "e_kg": 1,
    "檢定合格期限": 1140531,
    "檢定合格單號": "A0BC1200213",
    "檢查日期": 1130612,
    "檢查合格_停用_單號": "A01200257",
    "檢查合格與否": "Y"
  },
  {
    "latitude": 25.07503,
    "longitude": 121.44382,
    "縣市": "新北市",
    "所有人": "大豐環保科技股份有限公司",
    "地址": "新北市五股區夏綠地街31號",
    "廠牌": "力固",
    "型號": "IND570",
    "器號": "C151214949",
    "Max_t": 10,
    "e_kg": 1,
    "檢定合格期限": 1140531,
    "檢定合格單號": "A0BC1200212",
    "檢查日期": 1130612,
    "檢查合格_停用_單號": "A01200258",
    "檢查合格與否": "Y"
  },
  {
    "latitude": 25.0442798,
    "longitude": 121.4649099,
    "縣市": "新北市",
    "所有人": "凱銳汽車股份有限公司新莊分公司",
    "地址": "新北市新莊區化成路37號",
    "廠牌": "中日",
    "型號": "P5-S1",
    "器號": "P5M200251",
    "Max_t": 50,
    "e_kg": 2,
    "檢定合格期限": 1140630,
    "檢定合格單號": "A0BC1200256"
  },
  {
    "latitude": 25.11902,
    "longitude": 121.72723,
    "縣市": "基隆市",
    "所有人": "合發地磅",
    "地址": "基隆市暖暖區路156號",
    "廠牌": "中日",
    "型號": "P5-S1",
    "器號": "P5M2002",
    "Max_t": 50,
    "e_kg": "1",
    "檢定合格期限": 1140630,
    "檢定合格單號": "A0BC1200250"
  }
]